City_ID,City,Lat,Lng,Max Temp,Humidity,Cloudiness,Wind Speed,Country,Current Description,Rain inches (last 3 hrs),Snow inches (last 3 hrs),Date
0,Butaritari,3.07,172.79,85.28,76,100,15.26,KI,moderate rain,3.81,0,1/5/2020 19:59
1,Bathsheba,13.22,-59.52,80.6,69,75,14.99,BB,light intensity shower rain,0,0,1/5/2020 19:59
2,Yellowknife,62.45,-114.38,-13,75,40,6.93,CA,scattered clouds,0,0,1/5/2020 19:55
3,Kaitangata,-46.28,169.85,48.99,72,80,17,NZ,light rain,1.19,0,1/5/2020 19:58
4,Newberry,46.35,-85.51,32,92,90,11.41,US,light snow,0,0,1/5/2020 19:59
5,Avarua,-21.21,-159.78,80.6,88,100,8.05,CK,light rain,0.75,0,1/5/2020 19:59
6,Luderitz,-26.65,15.16,63.55,85,0,24.99,NA,clear sky,0,0,1/5/2020 19:59
7,Kapaa,22.08,-159.32,78.8,74,20,11.95,US,few clouds,0,0,1/5/2020 19:59
8,Bluff,-23.58,149.07,74.39,77,0,10.36,AU,clear sky,0,0,1/5/2020 19:59
9,Istmina,5.16,-76.69,86,70,75,2.57,CO,broken clouds,0,0,1/5/2020 19:59
10,Punta Arenas,-53.16,-70.91,57.2,47,40,25.28,CL,scattered clouds,0,0,1/5/2020 19:59
11,New Norfolk,-42.78,147.06,54,76,20,9.17,AU,few clouds,0,0,1/5/2020 19:59
12,Sisimiut,66.94,-53.67,-1.3,96,100,6.71,GL,light snow,0,0.56,1/5/2020 19:59
13,Saint George,39.45,22.34,42.8,80,90,11.41,GR,overcast clouds,0,0,1/5/2020 19:59
14,Poshtove,49.79,28.1,30.07,88,100,11.92,UA,light snow,0,0.19,1/5/2020 19:59
15,Narsaq,60.91,-46.05,15.8,61,20,8.05,GL,few clouds,0,0,1/5/2020 19:59
16,Albany,42.65,-73.75,35.01,50,40,19.46,US,scattered clouds,0,0,1/5/2020 19:54
17,Busselton,-33.64,115.35,60.01,40,0,9.35,AU,clear sky,0,0,1/5/2020 19:59
18,Ushuaia,-54.81,-68.31,51.8,76,75,32.21,AR,shower rain,0,0,1/5/2020 19:59
19,Cape Town,-33.93,18.42,68,82,75,9.17,ZA,broken clouds,0,0,1/5/2020 19:56
20,Saskylakh,71.97,114.09,-19.21,94,0,13.09,RU,clear sky,0,0,1/5/2020 19:59
21,Bijie,27.3,105.3,41.99,95,100,5.41,CN,light rain,2.13,0,1/5/2020 19:59
22,Vaini,15.34,74.49,66.11,79,0,6.89,IN,clear sky,0,0,1/5/2020 19:59
23,Nanortalik,60.14,-45.24,26.4,70,0,11.77,GL,clear sky,0,0,1/5/2020 19:59
24,Kyren,51.68,102.13,3.09,72,0,5.23,RU,clear sky,0,0,1/5/2020 19:59
25,Ilulissat,69.22,-51.1,8.6,71,75,5.82,GL,light snow,0,0,1/5/2020 19:58
26,Almaznyy,48.03,40.04,33.8,100,75,4.47,RU,light rain,0,0,1/5/2020 19:59
27,Rikitea,-23.12,-134.97,76.03,78,67,15.41,PF,broken clouds,0,0,1/5/2020 19:59
28,Kibondo,-3.59,30.72,64.11,92,100,1.92,TZ,light rain,2.13,0,1/5/2020 19:59
29,Port Hedland,-20.31,118.58,84.2,74,90,10.29,AU,overcast clouds,0,0,1/5/2020 19:59
30,Thompson,55.74,-97.86,5,84,90,6.93,CA,light snow,0,0,1/5/2020 19:59
31,Raudeberg,61.99,5.14,48,100,75,17.22,NO,moderate rain,0,0,1/5/2020 19:59
32,Mataura,-46.19,168.86,48,85,87,21,NZ,light rain,1.56,0,1/5/2020 19:55
33,Baykit,61.68,96.39,9.34,96,100,4.05,RU,overcast clouds,0,0,1/5/2020 19:59
34,Aswan,24.09,32.9,46,41,0,6.64,EG,clear sky,0,0,1/5/2020 19:59
35,Salinas,36.67,-121.66,57.99,76,1,3.36,US,clear sky,0,0,1/5/2020 19:59
36,Hermanus,-34.42,19.24,64,89,100,11.03,ZA,overcast clouds,0,0,1/5/2020 19:59
37,Japura,-0.42,102.29,72.21,96,1,2.26,ID,clear sky,0,0,1/5/2020 19:59
38,Cabra,37.47,-4.43,45,93,0,2.04,ES,clear sky,0,0,1/5/2020 19:59
39,Jamestown,-33.21,138.6,56.25,87,89,5.93,AU,light rain,2.19,0,1/5/2020 19:59
40,Labuhan,-2.54,115.51,72.39,95,100,2.39,ID,moderate rain,3.06,0,1/5/2020 19:59
41,Atar,20.52,-13.05,56.75,22,0,8.41,MR,clear sky,0,0,1/5/2020 19:59
42,Samana,0.12,-76.97,91.4,55,40,5.82,EC,scattered clouds,0,0,1/5/2020 19:59
43,Zhigansk,66.77,123.37,-10.32,94,100,15.64,RU,overcast clouds,0,0,1/5/2020 19:59
44,Balikpapan,-1.24,116.86,73.87,96,100,5.32,ID,overcast clouds,0,0,1/5/2020 19:59
45,Ewa Beach,21.32,-158.01,77,83,90,4.7,US,light intensity drizzle,0,0,1/5/2020 19:56
46,Khatanga,71.98,102.47,-8.95,88,100,6.8,RU,overcast clouds,0,0,1/5/2020 19:59
47,Quelimane,-17.88,36.89,82.4,83,75,3.36,MZ,broken clouds,0,0,1/5/2020 19:59
48,Wonthaggi,-38.6,145.59,55,95,100,6.53,AU,light rain,1,0,1/5/2020 19:59
49,Clyde River,70.47,-68.59,-41.8,57,20,4.7,CA,few clouds,0,0,1/5/2020 19:59
50,Sitka,37.17,-99.65,52,37,2,4,US,clear sky,0,0,1/5/2020 19:59
51,Los Llanos De Aridane,28.66,-17.92,64.4,63,20,9.17,ES,few clouds,0,0,1/5/2020 19:59
52,Arraial Do Cabo,-22.97,-42.02,82.4,83,40,12.75,BR,scattered clouds,0,0,1/5/2020 19:59
53,Port Elizabeth,39.31,-74.98,43,44,90,11.41,US,overcast clouds,0,0,1/5/2020 19:58
54,Bubaque,11.28,-15.83,77.5,57,5,18.01,GW,clear sky,0,0,1/5/2020 19:59
55,Fairbanks,64.84,-147.72,-18.99,92,75,3.36,US,snow,0,0,1/5/2020 19:59
56,Kavieng,-2.57,150.8,84.27,73,56,7.54,PG,light rain,2,0,1/5/2020 19:59
57,Hofn,64.25,-15.21,43.52,74,100,12.55,IS,overcast clouds,0,0,1/5/2020 19:59
58,Bethel,60.79,-161.76,-16.6,74,1,5.82,US,clear sky,0,0,1/5/2020 19:56
59,Fonte Boa,-2.51,-66.09,86.76,69,93,1.79,BR,light rain,0.38,0,1/5/2020 19:58
60,Oyama,36.31,139.8,43,92,20,1.12,JP,few clouds,0,0,1/5/2020 19:59
61,Mikhaylovka,52.96,103.29,0.81,96,3,1.97,RU,clear sky,0,0,1/5/2020 19:59
62,Dikson,73.51,80.55,17.56,91,95,20.65,RU,light snow,0,0.19,1/5/2020 19:59
63,Tortoli,39.93,9.66,51.8,93,20,12.75,IT,few clouds,0,0,1/5/2020 19:59
64,Castro,-42.48,-73.76,59,58,75,12.75,CL,broken clouds,0,0,1/5/2020 19:59
65,Tuatapere,-46.13,167.69,48,85,100,21,NZ,light rain,2.13,0,1/5/2020 19:59
66,Kahului,20.89,-156.47,78.8,78,40,9.17,US,scattered clouds,0,0,1/5/2020 19:59
67,Remanso,-9.62,-42.08,74.89,81,74,4.5,BR,broken clouds,0,0,1/5/2020 19:59
68,Pisco,-13.71,-76.2,73,30,69,10.29,PE,broken clouds,0,0,1/5/2020 19:57
69,Roura,4.73,-52.33,80.6,78,1,4.7,GF,light rain,0.38,0,1/5/2020 19:59
70,Yeppoon,-23.13,150.74,75.2,78,2,2.24,AU,clear sky,0,0,1/5/2020 19:59
71,East London,-33.02,27.91,73.44,75,90,4.63,ZA,overcast clouds,0,0,1/5/2020 19:59
72,Tasiilaq,65.61,-37.64,24.06,93,100,30.44,GL,snow,0,3.94,1/5/2020 19:59
73,Qaanaaq,77.48,-69.36,-25.65,47,0,4.12,GL,clear sky,0,0,1/5/2020 19:59
74,Port Alfred,-33.59,26.89,68,89,50,1.01,ZA,scattered clouds,0,0,1/5/2020 19:58
75,Oranjemund,-28.55,16.43,62.89,91,0,12.39,ZA,clear sky,0,0,1/5/2020 19:59
76,San Cristobal,14.68,-86.92,69.13,77,96,10.8,HN,overcast clouds,0,0,1/5/2020 19:59
77,Hobart,-42.88,147.33,54,76,20,9.17,AU,few clouds,0,0,1/5/2020 19:59
78,Tura,64.27,100.22,12.61,87,100,8.97,RU,light snow,0,0.25,1/5/2020 19:59
79,Upernavik,72.79,-56.15,-29.87,88,100,11.86,GL,overcast clouds,0,0,1/5/2020 19:59
80,Kimbe,-5.56,150.15,77.5,88,100,2.04,PG,overcast clouds,0,0,1/5/2020 19:59
81,Petropavlovsk-Kamchatskiy,53.05,158.65,26.6,79,75,4.47,RU,broken clouds,0,0,1/5/2020 19:59
82,San Quintin,17.54,120.52,67.23,81,39,6.53,PH,scattered clouds,0,0,1/5/2020 19:59
83,Saint-Philippe,45.36,-73.48,23,62,90,11.41,CA,light snow,0,0,1/5/2020 19:59
84,Constitucion,23.99,-104.67,60.01,19,5,2.24,MX,clear sky,0,0,1/5/2020 19:59
85,Komsomolskiy,67.55,63.78,9.59,94,87,15.82,RU,overcast clouds,0,0,1/5/2020 19:59
86,Kihei,20.76,-156.45,78.8,78,40,9.17,US,scattered clouds,0,0,1/5/2020 20:03
87,Springdale,36.19,-94.13,59,55,1,10.29,US,clear sky,0,0,1/5/2020 20:03
88,Cherskiy,68.75,161.3,-7.71,61,5,5.35,RU,clear sky,0,0,1/5/2020 20:03
89,Atuona,-9.8,-139.03,80.56,67,0,4.74,PF,clear sky,0,0,1/5/2020 20:03
90,Ribeira Grande,38.52,-28.7,64.4,93,40,16.11,PT,scattered clouds,0,0,1/5/2020 19:58
91,Chapais,49.78,-74.86,8.6,84,90,4.7,CA,light snow,0,0,1/5/2020 19:59
92,Joensuu,62.6,29.76,14,85,100,4.7,FI,overcast clouds,0,0,1/5/2020 20:03
93,Muroto,33.37,134.14,36.45,68,18,4.88,JP,few clouds,0,0,1/5/2020 20:03
94,Poum,41.28,20.71,30.2,50,75,11.41,MK,broken clouds,0,0,1/5/2020 20:03
95,Norman Wells,65.28,-126.83,-23.8,74,40,2.24,CA,scattered clouds,0,0,1/5/2020 20:03
96,Loa Janan,-0.58,117.09,72.34,97,100,3.67,ID,overcast clouds,0,0,1/5/2020 20:03
97,Geraldton,49.72,-86.95,12.2,85,90,8.05,CA,snow,0,0,1/5/2020 19:59
98,Pacific Grove,36.62,-121.92,57.99,50,1,8.05,US,clear sky,0,0,1/5/2020 20:03
99,Pitimbu,-7.47,-34.81,84.2,66,40,11.41,BR,scattered clouds,0,0,1/5/2020 20:03
100,Buala,-8.15,159.59,82.31,81,69,8.99,SB,broken clouds,0,0,1/5/2020 20:03
101,Makakilo City,21.35,-158.09,77,83,90,4.7,US,light intensity drizzle,0,0,1/5/2020 20:00
102,Kavaratti,10.57,72.64,79.97,63,0,3.85,IN,clear sky,0,0,1/5/2020 20:03
103,Saldanha,41.42,-6.55,38.03,75,7,0.6,PT,clear sky,0,0,1/5/2020 19:59
104,Hilo,19.71,-155.08,77,69,75,4.7,US,moderate rain,0,0,1/5/2020 20:03
105,Pevek,69.7,170.27,-6.29,82,0,5.59,RU,clear sky,0,0,1/5/2020 20:03
106,Talnakh,69.49,88.39,23,92,75,29.08,RU,shower snow,0,0,1/5/2020 20:03
107,Te Anau,-45.41,167.72,43.75,83,52,16.42,NZ,light rain,1.44,0,1/5/2020 19:59
108,Bambous Virieux,-20.34,57.76,73.4,100,75,5.82,MU,moderate rain,0,0,1/5/2020 20:03
109,Maceio,-9.67,-35.74,84.2,62,100,12.75,BR,overcast clouds,0,0,1/5/2020 19:58
110,Wanning,48.64,13.53,34,89,90,2.24,AT,overcast clouds,0,0,1/5/2020 20:03
111,Taloqan,36.74,69.54,33.37,40,79,5.46,AF,broken clouds,0,0,1/5/2020 20:03
112,Mehamn,71.03,27.85,26.6,79,75,6.93,NO,broken clouds,0,0,1/5/2020 20:03
113,Billings,45.79,-108.5,43,25,40,16.11,US,scattered clouds,0,0,1/5/2020 20:01
114,Tsiroanomandidy,-18.77,46.05,70.77,84,42,1.23,MG,light rain,1.13,0,1/5/2020 20:03
115,Lompoc,34.64,-120.46,66.99,62,1,6.93,US,clear sky,0,0,1/5/2020 20:03
116,Batagay,67.65,134.64,-21.06,85,59,1.97,RU,broken clouds,0,0,1/5/2020 20:03
117,Dryden,49.79,-92.84,23,85,90,18.34,CA,light snow,0,0,1/5/2020 20:03
118,Kahramanmaras,37.58,36.93,42.8,70,75,5.82,TR,broken clouds,0,0,1/5/2020 20:03
119,Slave Lake,55.28,-114.77,10.4,92,90,6.93,CA,overcast clouds,0,0,1/5/2020 19:59
120,Chokurdakh,70.62,147.9,-21.48,99,84,3.83,RU,broken clouds,0,0,1/5/2020 20:03
121,Tripoli,37.51,22.37,50,70,100,6.93,GR,light rain,0,0,1/5/2020 20:03
122,Eyl,7.98,49.82,78.37,84,49,12.3,SO,scattered clouds,0,0,1/5/2020 20:03
123,Shimoda,34.7,138.93,34,80,100,15.12,JP,light rain,0.5,0,1/5/2020 20:03
124,Mahebourg,-20.41,57.7,73.4,100,75,5.82,MU,moderate rain,0,0,1/5/2020 19:59
125,Nikolskoye,59.7,30.79,24.01,79,81,2.24,RU,broken clouds,0,0,1/5/2020 20:03
126,Port Blair,11.67,92.75,80.74,78,0,13.67,IN,clear sky,0,0,1/5/2020 20:03
127,Harper,30.3,-99.24,73.99,17,1,10.29,US,clear sky,0,0,1/5/2020 19:59
128,College,64.86,-147.8,-23.01,96,75,3.36,US,snow,0,0,1/5/2020 20:03
129,Spencer,42.24,-71.99,37.99,47,75,14.99,US,broken clouds,0,0,1/5/2020 20:03
130,San Patricio,-26.98,-56.83,93.25,32,24,2.8,PY,few clouds,0,0,1/5/2020 20:03
131,Laela,-8.57,32.05,61.72,90,100,2.39,TZ,overcast clouds,0,0,1/5/2020 20:03
132,Puri,-7.54,112.45,75.27,86,100,4.76,ID,overcast clouds,0,0,1/5/2020 20:03
133,Torbay,47.66,-52.73,30.99,100,90,19.46,CA,snow,0,0,1/5/2020 20:03
134,Meridian,43.61,-116.39,37.99,100,75,5.82,US,light rain,0,0,1/5/2020 20:00
135,Barrow,-38.31,-60.23,73.53,76,100,3.74,AR,moderate rain,7.25,0,1/5/2020 20:03
136,Tirana,41.33,19.82,42.8,33,40,14.99,AL,scattered clouds,0,0,1/5/2020 20:02
137,Gondanglegi,-7.75,112.01,74.79,91,91,1.68,ID,light rain,2.25,0,1/5/2020 20:03
138,Vestmannaeyjar,63.44,-20.27,43.03,70,100,19.98,IS,light rain,0.13,0,1/5/2020 20:03
139,Honggang,29.51,114.87,50.22,96,58,1.86,CN,broken clouds,0,0,1/5/2020 20:03
140,Verkhoyansk,67.55,133.39,-28.16,83,10,0.49,RU,clear sky,0,0,1/5/2020 20:03
141,Nalut,31.86,10.98,52.47,59,63,8.19,LY,broken clouds,0,0,1/5/2020 20:03
142,Shelburne,44.08,-80.2,34,78,75,4.9,CA,light snow,0,0,1/5/2020 20:03
143,Tyret Pervaya,53.67,102.31,5,89,32,5.19,RU,scattered clouds,0,0,1/5/2020 20:03
144,Katsuura,33.93,134.5,37.4,73,40,8.05,JP,scattered clouds,0,0,1/5/2020 20:03
145,Hamilton,43.26,-79.87,37,74,90,4.7,CA,overcast clouds,0,0,1/5/2020 20:02
146,Airai,-8.93,125.41,69.42,84,100,5.26,TL,overcast clouds,0,0,1/5/2020 20:03
147,Riohacha,11.54,-72.91,81.97,70,64,13.06,CO,broken clouds,0,0,1/5/2020 20:00
148,Kozlovo,56.51,36.26,28.69,93,96,6.38,RU,light snow,0,0.13,1/5/2020 20:03
149,Kokopo,-4.34,152.27,82.35,76,81,3.31,PG,broken clouds,0,0,1/5/2020 19:59
150,Faanui,-16.48,-151.75,81.57,75,37,9.42,PF,scattered clouds,0,0,1/5/2020 19:59
151,Abay,49.63,72.87,-4,83,82,6.71,KZ,broken clouds,0,0,1/5/2020 20:03
152,Tombouctou,16.77,-3.01,64.22,17,53,9.98,ML,broken clouds,0,0,1/5/2020 20:03
153,Fare,-16.7,-151.02,81.37,77,67,10.74,PF,light rain,0.81,0,1/5/2020 20:03
154,Sioux Lookout,50.1,-91.92,24.8,92,90,12.75,CA,light snow,0,0,1/5/2020 20:03
155,Sao Joao Da Barra,-21.64,-41.05,84.2,70,75,6.93,BR,broken clouds,0,0,1/5/2020 20:03
156,Souillac,45.6,-0.6,42.8,75,0,6.93,FR,clear sky,0,0,1/5/2020 20:03
157,Morant Bay,17.88,-76.41,87.8,62,20,10.29,JM,few clouds,0,0,1/5/2020 20:03
158,Aldan,58.61,125.39,9.18,91,100,9.48,RU,light snow,0,0.38,1/5/2020 20:03
159,Vanimo,-2.67,141.3,81.59,84,100,23.76,PG,moderate rain,5.63,0,1/5/2020 20:03
160,Bundaberg,-24.87,152.35,79,78,90,1.12,AU,overcast clouds,0,0,1/5/2020 20:03
161,Marystown,47.17,-55.16,35.01,100,100,41.23,CA,snow,0,9.25,1/5/2020 20:03
162,Tuktoyaktuk,69.44,-133.03,-23.8,74,90,8.05,CA,overcast clouds,0,0,1/5/2020 19:59
163,Beroroha,-21.68,45.17,74.95,79,33,2.51,MG,scattered clouds,0,0,1/5/2020 20:03
164,Okhotsk,59.36,143.24,3.43,76,0,12.03,RU,clear sky,0,0,1/5/2020 20:03
165,San Jeronimo,-13.65,-73.37,61.63,67,87,6.46,PE,light rain,2.75,0,1/5/2020 20:03
166,Hithadhoo,-0.6,73.08,81.48,78,100,11.25,MV,overcast clouds,0,0,1/5/2020 20:03
167,Marsh Harbour,26.54,-77.06,66.45,70,68,23.11,BS,broken clouds,0,0,1/5/2020 20:03
168,Xining,36.62,101.77,18.41,59,100,3.18,CN,overcast clouds,0,0,1/5/2020 19:59
169,Alofi,-19.06,-169.92,80.6,83,1,13.87,NU,light rain,0.19,0,1/5/2020 20:03
170,Port Macquarie,-31.43,152.91,72,82,90,5.82,AU,overcast clouds,0,0,1/5/2020 20:03
171,Namwala,-15.75,26.45,70.3,89,100,1.68,ZM,overcast clouds,0,0,1/5/2020 20:03
172,Longyearbyen,78.22,15.63,-2.2,84,20,5.82,NO,few clouds,0,0,1/5/2020 20:03
173,Manggar,-2.88,108.27,81.82,80,100,17.58,ID,overcast clouds,0,0,1/5/2020 20:03
174,Nagato,34.35,131.14,42.8,87,20,4.7,JP,few clouds,0,0,1/5/2020 20:03
175,Luang Prabang,19.89,102.14,59.07,97,0,0.69,LA,clear sky,0,0,1/5/2020 20:03
176,Hobyo,5.35,48.53,78.58,79,34,12.19,SO,scattered clouds,0,0,1/5/2020 19:59
177,Kostomuksha,64.59,30.6,18.46,90,98,9.66,RU,overcast clouds,0,0,1/5/2020 20:03
178,Pithiviers,48.17,2.25,45,80,20,3.36,FR,few clouds,0,0,1/5/2020 20:03
179,Batagay-Alyta,67.8,130.41,-22.11,79,17,4.05,RU,few clouds,0,0,1/5/2020 20:03
180,Chicama,-7.84,-79.15,73.4,78,20,10.29,PE,few clouds,0,0,1/5/2020 20:03
181,Aiyira,38.15,22.35,48,62,100,15.01,GR,snow,0,2.5,1/5/2020 20:03
182,Charters Towers,-20.07,146.27,74.03,84,2,8.39,AU,clear sky,0,0,1/5/2020 20:03
183,Ojinaga,29.56,-104.41,66.99,26,1,6.93,US,clear sky,0,0,1/5/2020 20:03
184,Mitu,36.2,46.09,23.56,98,100,3.47,IR,light snow,0,0.31,1/5/2020 20:03
185,Elko,40.83,-115.76,41,80,90,3.36,US,light rain,0,0,1/5/2020 19:59
186,Carnarvon,-30.97,22.13,66.76,29,24,10.56,ZA,few clouds,0,0,1/5/2020 20:03
187,Yaan,7.38,8.57,79.2,21,100,5.23,NG,overcast clouds,0,0,1/5/2020 20:03
188,La Gomera,14.09,-91.05,87.8,66,5,13.87,GT,smoke,0,0,1/5/2020 20:03
189,Solvychegodsk,61.33,46.92,18.95,94,99,7.16,RU,light snow,0,0.38,1/5/2020 20:03
190,Jatibarang,-6.47,108.3,79.02,85,95,7.78,ID,light rain,2.13,0,1/5/2020 20:03
191,At-Bashi,41.17,75.81,-2.87,75,100,10.56,KG,overcast clouds,0,0,1/5/2020 20:03
192,Noumea,-22.28,166.46,78.01,73,0,1.12,NC,light rain,0.13,0,1/5/2020 19:58
193,Lebu,8.96,38.73,55.35,71,0,2.39,ET,clear sky,0,0,1/5/2020 20:03
194,Quatre Cocos,-20.21,57.76,73.4,100,75,5.82,MU,moderate rain,0,0,1/5/2020 19:59
195,Ahipara,-35.17,173.16,66,100,100,22.53,NZ,light rain,0.63,0,1/5/2020 20:03
196,Saint-Augustin,45.63,-73.98,23,62,90,11.41,CA,light snow,0,0,1/5/2020 20:03
197,Kodinsk,58.6,99.18,18.95,95,97,5.99,RU,light snow,0,0.19,1/5/2020 20:03
198,Lavrentiya,65.58,-170.99,-12.98,87,19,8.32,RU,few clouds,0,0,1/5/2020 20:03
199,Bredasdorp,-34.53,20.04,68,64,100,6.93,ZA,overcast clouds,0,0,1/5/2020 19:58
200,Iguape,-24.7,-47.56,78.6,74,55,4.97,BR,broken clouds,0,0,1/5/2020 20:03
201,Medea,36.27,2.77,46.4,93,20,2.24,DZ,few clouds,0,0,1/5/2020 20:03
202,Hasaki,35.73,140.83,28.4,86,20,2.24,JP,few clouds,0,0,1/5/2020 20:01
203,Yar-Sale,66.83,70.83,15.31,84,0,17.47,RU,clear sky,0,0,1/5/2020 20:03
204,Turiacu,-5.01,-63,89.42,54,70,3.78,BR,broken clouds,0,0,1/5/2020 20:03
205,Bielsk Podlaski,52.77,23.19,30,90,0,6.62,PL,clear sky,0,0,1/5/2020 20:03
206,Canico,32.63,-16.85,62.6,72,40,6.93,PT,scattered clouds,0,0,1/5/2020 20:03
207,Steinbach,49.53,-96.69,28.99,68,75,18.34,CA,broken clouds,0,0,1/5/2020 19:59
208,Victoria,5.28,115.24,80.6,78,75,3.36,BN,broken clouds,0,0,1/5/2020 20:00
209,Lincoln,53.23,-0.54,48.2,93,75,12.75,GB,broken clouds,0,0,1/5/2020 20:00
210,Skelleftea,64.75,20.95,30.2,92,100,9.17,SE,light snow,0,0,1/5/2020 20:03
211,Aklavik,68.22,-135.01,-16.6,62,90,10.29,CA,overcast clouds,0,0,1/5/2020 20:03
212,Ponta Delgada,37.73,-25.67,64.4,93,40,14.99,PT,scattered clouds,0,0,1/5/2020 19:58
213,North Battleford,52.78,-108.3,23,62,1,3.27,CA,clear sky,0,0,1/5/2020 20:03
214,Samarai,-10.62,150.67,79.39,85,100,2.68,PG,overcast clouds,0,0,1/5/2020 20:03
215,Tamandare,-8.28,-70.75,92.5,43,81,5.7,BR,broken clouds,0,0,1/5/2020 20:03
216,Calama,-22.46,-68.93,71.6,37,40,29.97,CL,scattered clouds,0,0,1/5/2020 20:03
217,San Pedro,-33.68,-59.66,88,46,67,4,AR,broken clouds,0,0,1/5/2020 20:02
218,Keuruu,62.26,24.71,27,58,75,10.29,FI,broken clouds,0,0,1/5/2020 20:03
219,Husavik,50.56,-96.99,28.99,67,37,10,CA,scattered clouds,0,0,1/5/2020 20:03
220,Port Augusta,-32.49,137.76,54,97,80,1.99,AU,light rain,0.19,0,1/5/2020 19:59
221,Puerto Ayora,-0.74,-90.35,84.2,66,40,5.82,EC,scattered clouds,0,0,1/5/2020 20:03
222,Lucea,18.44,-78.17,84.99,70,20,13.87,JM,few clouds,0,0,1/5/2020 20:03
223,Kodiak,39.95,-94.76,51.01,39,1,17.22,US,clear sky,0,0,1/5/2020 20:03
224,Bella Union,8.5,-73.35,77.88,63,33,3,CO,light rain,0.38,0,1/5/2020 20:03
225,Mattru,7.62,-11.83,72.95,75,42,3.6,SL,scattered clouds,0,0,1/5/2020 20:03
226,Nagapattinam,10.76,79.84,80.28,79,64,13.2,IN,broken clouds,0,0,1/5/2020 20:03
227,Acari,-6.44,-36.64,89.92,34,100,9.8,BR,overcast clouds,0,0,1/5/2020 20:03
228,Venustiano Carranza,19.42,-99.11,73.4,13,5,4.7,MX,clear sky,0,0,1/5/2020 20:03
229,Fortuna,40.6,-124.16,55,93,40,5.82,US,scattered clouds,0,0,1/5/2020 20:03
230,Chuy,-33.69,-53.46,75.31,63,0,13.76,UY,clear sky,0,0,1/5/2020 20:03
231,Pacifica,37.61,-122.49,57.99,62,1,14.99,US,clear sky,0,0,1/5/2020 20:03
232,Tiksi,71.64,128.87,-14.8,86,0,11.92,RU,clear sky,0,0,1/5/2020 20:03
233,Cabo San Lucas,22.89,-109.91,81,53,40,2.24,MX,scattered clouds,0,0,1/5/2020 19:58
234,Orzhytsya,49.79,32.7,31.82,96,99,8.41,UA,light snow,0,0.56,1/5/2020 20:03
235,Ostrovnoy,68.05,39.51,14.47,92,68,20.92,RU,broken clouds,0,0,1/5/2020 20:03
236,Taksimo,56.36,114.84,-8.28,93,18,1.86,RU,few clouds,0,0,1/5/2020 20:03
237,Ugoofaaru,5.67,73,81.9,80,3,12.57,MV,clear sky,0,0,1/5/2020 20:03
238,Haines Junction,60.75,-137.51,-11.18,90,1,3.36,CA,clear sky,0,0,1/5/2020 19:59
239,Finote Selam,10.7,37.27,56.46,85,5,1.07,ET,light rain,0.25,0,1/5/2020 20:00
240,Sola,-3.17,33.8,66.42,84,89,4.52,TZ,overcast clouds,0,0,1/5/2020 20:03
241,Shushtar,32.05,48.86,53.4,57,0,3.4,IR,clear sky,0,0,1/5/2020 20:03
242,Bacolod,10.68,122.95,73.81,83,12,6.69,PH,few clouds,0,0,1/5/2020 20:03
243,Rock Sound,24.9,-76.2,68.9,73,23,20.87,BS,few clouds,0,0,1/5/2020 20:03
244,Coquimbo,-29.95,-71.34,66.2,68,90,10.29,CL,overcast clouds,0,0,1/5/2020 20:03
245,Iskateley,67.68,53.15,16.77,90,88,17.29,RU,overcast clouds,0,0,1/5/2020 20:03
246,Udachnyy,66.42,112.4,-16.6,82,67,2.24,RU,broken clouds,0,0,1/5/2020 20:03
247,Sattahip,12.67,100.9,73.4,83,0,4.7,TH,clear sky,0,0,1/5/2020 20:03
248,Lumphat,13.5,106.97,66.36,77,10,6.31,KH,clear sky,0,0,1/5/2020 20:03
249,Wajid,3.81,43.25,83.86,40,0,9.84,SO,clear sky,0,0,1/5/2020 20:03
250,Havelock,34.88,-76.9,55,37,1,14.99,US,clear sky,0,0,1/5/2020 20:03
251,Caramay,10.18,119.24,74.34,90,65,6.49,PH,broken clouds,0,0,1/5/2020 20:03
252,Abu Zabad,12.35,29.25,60.49,16,0,13.2,SD,clear sky,0,0,1/5/2020 20:03
253,Coldwater,41.94,-85,35.6,74,1,11.41,US,clear sky,0,0,1/5/2020 20:00
254,Vila,45.18,8.4,46,80,0,2.24,IT,clear sky,0,0,1/5/2020 20:03
255,Tessalit,20.2,1.01,57.83,19,0,9.95,ML,clear sky,0,0,1/5/2020 20:02
256,Faya,18.39,42.45,59,87,20,6.93,SA,few clouds,0,0,1/5/2020 20:03
257,Rawson,-43.3,-65.11,64.76,60,42,22.15,AR,scattered clouds,0,0,1/5/2020 20:03
258,Alice Springs,-23.7,133.88,66.2,77,40,6.93,AU,scattered clouds,0,0,1/5/2020 20:03
259,Sao Filipe,14.9,-24.5,70.7,67,32,16.08,CV,scattered clouds,0,0,1/5/2020 19:59
260,Nyurba,63.29,118.35,-5.06,99,95,2.13,RU,light snow,0,0.13,1/5/2020 20:03
261,Owase,34.07,136.2,28.85,87,11,6.06,JP,few clouds,0,0,1/5/2020 20:03
262,La Tuque,47.44,-72.79,13.55,87,74,7.18,CA,broken clouds,0,0,1/5/2020 20:03
263,Port-Gentil,-0.72,8.78,82.4,88,40,10.29,GA,scattered clouds,0,0,1/5/2020 20:03
264,Vila Franca Do Campo,37.72,-25.43,64.4,93,40,14.99,PT,scattered clouds,0,0,1/5/2020 19:59
265,Poya,-21.35,165.16,76.62,73,0,9.19,NC,clear sky,0,0,1/5/2020 20:03
266,Menongue,-14.66,17.68,63.59,92,92,3.4,AO,overcast clouds,0,0,1/5/2020 20:03
267,Kruisfontein,-34,24.73,65.17,83,100,5.23,ZA,light rain,0.19,0,1/5/2020 19:59
268,Tsevie,6.43,1.21,80.6,54,100,3.36,TG,haze,0,0,1/5/2020 20:03
269,Poli,8.48,13.24,73.26,23,0,4.38,CM,clear sky,0,0,1/5/2020 20:03
270,Cidreira,-30.17,-50.22,74.61,82,0,19.3,BR,clear sky,0,0,1/5/2020 20:03
271,Vao,59.1,26.19,27.45,61,100,8.25,EE,overcast clouds,0,0,1/5/2020 19:59
272,Lewiston,44.1,-70.21,33.8,63,90,13.87,US,overcast clouds,0,0,1/5/2020 20:03
273,Uvat,59.14,68.9,19.26,95,98,9.26,RU,overcast clouds,0,0,1/5/2020 20:03
274,Dire Dawa,9.59,41.86,61.21,68,0,3.94,ET,clear sky,0,0,1/5/2020 20:03
275,Vostok,46.45,135.83,-5.44,98,90,3.24,RU,overcast clouds,0,0,1/5/2020 20:03
276,Pangnirtung,66.15,-65.72,-31,43,40,9.17,CA,scattered clouds,0,0,1/5/2020 20:03
277,Flinders,-34.58,150.85,64.99,93,100,8.05,AU,light rain,0.38,0,1/5/2020 20:03
278,Ridgecrest,35.62,-117.67,57.99,50,1,8.05,US,clear sky,0,0,1/5/2020 20:03
279,Rocha,-34.48,-54.34,78.91,49,68,13.96,UY,broken clouds,0,0,1/5/2020 20:03
280,Ambulu,-8.35,113.61,80.87,82,100,10.11,ID,moderate rain,4.63,0,1/5/2020 20:03
281,Qaqortoq,60.72,-46.03,15.8,61,20,8.05,GL,few clouds,0,0,1/5/2020 20:03
282,Point Fortin,10.16,-61.68,86,51,40,9.17,TT,scattered clouds,0,0,1/5/2020 20:03
283,Richards Bay,-28.77,32.06,79.36,87,0,21.59,ZA,clear sky,0,0,1/5/2020 20:03
284,Necochea,-38.55,-58.74,70,83,92,8.01,AR,overcast clouds,0,0,1/5/2020 20:00
285,Bontang,0.12,117.47,75.11,89,100,3.22,ID,light rain,1.88,0,1/5/2020 19:59
286,Guerrero Negro,27.97,-114.04,72.99,23,0,7.16,MX,clear sky,0,0,1/5/2020 20:03
287,Ourem,39.64,-8.59,53.01,76,0,2.24,PT,clear sky,0,0,1/5/2020 20:03
288,Kaeo,-35.1,173.78,69.01,100,100,16.37,NZ,light rain,0.19,0,1/5/2020 20:03
289,Anadyr,64.73,177.51,-29.2,66,0,8.95,RU,clear sky,0,0,1/5/2020 20:03
290,Carutapera,-1.2,-46.02,81.72,80,100,16.42,BR,light rain,0.25,0,1/5/2020 20:03
291,Bandarbeyla,9.49,50.81,78.48,81,100,10.02,SO,overcast clouds,0,0,1/5/2020 19:58
292,Georgetown,6.8,-58.16,87.8,54,20,4.7,GY,few clouds,0,0,1/5/2020 20:03
293,Blackfoot,43.19,-112.35,26.01,79,90,6.93,US,light rain,0,0,1/5/2020 20:03
294,Pytalovo,57.06,27.92,27.84,79,63,4.68,RU,broken clouds,0,0,1/5/2020 20:03
295,Lagoa,37.14,-8.45,57,71,0,6.93,PT,clear sky,0,0,1/5/2020 20:03
296,Dingle,11,122.67,72.93,95,63,10.02,PH,light rain,2,0,1/5/2020 20:00
297,Mar Del Plata,-46.43,-67.52,69.57,33,100,6.33,AR,overcast clouds,0,0,1/5/2020 20:03
298,Murakami,38.29,139.58,41.68,64,100,18.05,JP,light rain,0.19,0,1/5/2020 20:03
299,Savannah Bight,16.45,-85.85,78.62,82,17,18.48,HN,light rain,2.38,0,1/5/2020 20:03
300,Sistranda,63.73,8.83,46.4,87,75,14.99,NO,broken clouds,0,0,1/5/2020 20:03
301,Blagodatnoye,51.57,35.54,30.2,86,90,4.47,RU,overcast clouds,0,0,1/5/2020 20:03
302,Salalah,17.01,54.1,77,73,40,2.24,OM,scattered clouds,0,0,1/5/2020 20:03
303,Alpena,45.06,-83.43,32,86,90,11.41,US,light rain,0,0,1/5/2020 20:03
304,Turukhansk,65.8,87.96,20.98,94,100,15.28,RU,light snow,0,0.31,1/5/2020 20:03
305,Linqing,36.85,115.71,34.92,94,100,8.14,CN,overcast clouds,0,0,1/5/2020 20:03
306,Ambon,47.55,-2.56,44.01,93,0,5.82,FR,clear sky,0,0,1/5/2020 20:00
307,Mackay,53.65,-115.58,23,53,75,10.78,CA,broken clouds,0,0,1/5/2020 20:03
308,Piacenza,45.05,9.69,46,89,9,2.24,IT,clear sky,0,0,1/5/2020 20:03
309,Kingisepp,59.38,28.61,27.59,72,98,5.7,RU,overcast clouds,0,0,1/5/2020 20:03
310,Yarada,17.65,83.27,75.2,83,75,3.36,IN,mist,0,0,1/5/2020 20:03
311,Lumeje,-11.56,20.78,68.79,88,100,2.95,AO,light rain,1.63,0,1/5/2020 20:03
312,Ayan,38.23,44.7,13.66,79,0,7.05,IR,clear sky,0,0,1/5/2020 20:03
313,Comodoro Rivadavia,-45.87,-67.48,71.6,28,40,18.34,AR,scattered clouds,0,0,1/5/2020 20:03
314,Butembo,0.12,29.29,62.62,92,97,3.62,CD,light rain,0.5,0,1/5/2020 20:03
315,Sorochinsk,52.43,53.15,28.04,97,98,6.76,RU,light snow,0,0.38,1/5/2020 20:03
316,Marsaxlokk,35.84,14.54,57.2,35,0,24.16,MT,clear sky,0,0,1/5/2020 20:03
317,Prado,3.75,-74.93,80.92,60,100,7.4,CO,overcast clouds,0,0,1/5/2020 20:03
318,Kolpashevo,58.31,82.9,11.88,96,87,6.93,RU,overcast clouds,0,0,1/5/2020 20:03
319,Nonantola,44.68,11.04,43,86,0,4.7,IT,clear sky,0,0,1/5/2020 20:03
320,Lady Frere,-31.7,27.23,62.31,89,90,9.51,ZA,overcast clouds,0,0,1/5/2020 20:01
321,Valle De Allende,26.94,-105.39,70.84,11,0,10.18,MX,clear sky,0,0,1/5/2020 20:03
322,Wellington,-41.29,174.78,68,48,45,6.93,NZ,light rain,0.25,0,1/5/2020 20:03
323,Saint-Joseph,43.56,6.97,52,93,0,6.93,FR,clear sky,0,0,1/5/2020 20:03
324,Lichuan,30.3,108.94,43.86,98,100,0.54,CN,light rain,0.69,0,1/5/2020 20:03
325,Opuwo,-18.06,13.84,68.99,70,97,8.95,NA,overcast clouds,0,0,1/5/2020 20:03
326,Meulaboh,4.14,96.13,80.4,81,0,6.78,ID,clear sky,0,0,1/5/2020 20:03
327,Montepuez,-13.13,39,72.97,90,100,2.42,MZ,light rain,1.63,0,1/5/2020 20:03
328,Mount Gambier,-37.83,140.78,48.2,87,9,4.7,AU,clear sky,0,0,1/5/2020 19:59
329,Rocky Mountain House,52.38,-114.92,28.56,80,0,6.4,CA,clear sky,0,0,1/5/2020 20:00
330,Eirunepe,-6.66,-69.87,91.47,49,45,4.63,BR,scattered clouds,0,0,1/5/2020 20:03
331,Broken Hill,-31.97,141.45,57.2,76,100,14.99,AU,overcast clouds,0,0,1/5/2020 20:03
332,Vardo,39.62,-77.74,39.2,51,90,13.87,US,overcast clouds,0,0,1/5/2020 20:03
333,Havre-Saint-Pierre,50.23,-63.6,19.4,62,75,17.22,CA,broken clouds,0,0,1/5/2020 20:03
334,Dali,34.79,109.94,35.96,88,100,7.36,CN,overcast clouds,0,0,1/5/2020 20:03
335,Taga,-8.61,120.44,68.59,95,100,2.26,ID,overcast clouds,0,0,1/5/2020 20:03
336,Srednekolymsk,67.46,153.71,-9.17,78,10,1.77,RU,clear sky,0,0,1/5/2020 20:03
337,Peniche,39.36,-9.38,52,81,0,2.24,PT,clear sky,0,0,1/5/2020 20:03
338,Palauig,15.44,119.9,71.06,69,98,6.46,PH,overcast clouds,0,0,1/5/2020 20:03
339,Beyneu,45.32,55.19,27.82,75,76,4.76,KZ,broken clouds,0,0,1/5/2020 20:00
340,Gigmoto,13.78,124.39,80.2,79,100,24.92,PH,light rain,0.94,0,1/5/2020 20:03
341,Kuytun,54.34,101.51,6.55,92,81,4.7,RU,broken clouds,0,0,1/5/2020 20:00
342,Lafiagi,8.85,5.42,81.16,21,100,2.82,NG,overcast clouds,0,0,1/5/2020 20:03
343,Suntar,62.16,117.65,15.67,93,100,8.63,RU,light snow,0,0.38,1/5/2020 20:03
344,Ouallam,14.32,2.08,68.45,21,0,9.84,NE,clear sky,0,0,1/5/2020 20:03
345,San Esteban,15.21,-85.77,74.12,65,8,8.03,HN,clear sky,0,0,1/5/2020 20:03
346,Port Hardy,50.7,-127.42,35.6,93,75,6.93,CA,shower rain,0,0,1/5/2020 20:01
347,Awbari,26.59,12.77,46.02,32,0,5.48,LY,clear sky,0,0,1/5/2020 20:03
348,Alekseyevsk,57.84,108.35,7.72,93,89,8.5,RU,overcast clouds,0,0,1/5/2020 20:03
349,Divnomorskoye,44.5,38.13,48.88,69,96,7.61,RU,light rain,0.25,0,1/5/2020 20:03
350,Cap Malheureux,-19.98,57.61,73.4,100,75,5.82,MU,heavy intensity rain,0,0,1/5/2020 20:03
351,Emba,34.81,32.42,53.6,81,75,6.93,CY,broken clouds,0,0,1/5/2020 20:03
352,Port Lincoln,-34.72,135.86,61.3,76,78,10.56,AU,broken clouds,0,0,1/5/2020 19:59
353,Concarneau,47.88,-3.92,45,81,40,8.05,FR,scattered clouds,0,0,1/5/2020 20:03
354,Maragogi,-9.01,-35.22,80.53,73,100,11.92,BR,overcast clouds,0,0,1/5/2020 20:03
355,Iqaluit,63.75,-68.52,-23.01,67,75,2.24,CA,light snow,0,0,1/5/2020 20:03
356,Birjand,32.86,59.22,41,80,40,7.4,IR,scattered clouds,0,0,1/5/2020 20:03
357,Kutum,14.2,24.66,55.96,26,0,6.17,SD,clear sky,0,0,1/5/2020 20:03
358,Yerbogachen,61.28,108.01,5.65,92,100,10.6,RU,overcast clouds,0,0,1/5/2020 20:03
359,Toamasina,-18.17,49.38,78.8,88,40,4.7,MG,scattered clouds,0,0,1/5/2020 20:03
360,Abu Kamal,34.45,40.92,50.81,67,67,4.34,SY,broken clouds,0,0,1/5/2020 20:03
361,Namibe,-15.19,12.15,73.89,90,79,11.88,AO,broken clouds,0,0,1/5/2020 20:03
362,Hot Springs,34.5,-93.06,66.2,36,1,10.29,US,haze,0,0,1/5/2020 20:02
363,Mount Isa,-20.73,139.49,82.4,61,90,6.93,AU,overcast clouds,0,0,1/5/2020 20:03
364,Russell,38.9,-98.86,50,29,1,16.11,US,clear sky,0,0,1/5/2020 20:00
365,Dibulla,11.27,-73.31,80.04,79,99,13.71,CO,overcast clouds,0,0,1/5/2020 20:03
366,Totness,33.74,-80.8,57.2,33,1,4.7,US,clear sky,0,0,1/5/2020 20:03
367,Westport,41.14,-73.36,43,38,40,23.04,US,scattered clouds,0,0,1/5/2020 20:03
368,La Asuncion,-26.05,-65.39,74.28,67,99,2.08,AR,light rain,1.31,0,1/5/2020 20:03
369,Dilla,6.41,38.31,55.72,88,100,3.98,ET,light rain,0.5,0,1/5/2020 20:03
370,Bushehr,28.97,50.84,64.4,55,0,11.41,IR,clear sky,0,0,1/5/2020 20:03
371,Beringovskiy,63.05,179.32,-7.46,79,89,16.67,RU,overcast clouds,0,0,1/5/2020 20:03
372,Emerald,-23.53,148.16,73.4,78,0,7.83,AU,clear sky,0,0,1/5/2020 20:02
373,Bastia,44.6,8.98,54,70,0,2.24,IT,clear sky,0,0,1/5/2020 20:03
374,Zhezkazgan,47.8,67.71,14.85,90,92,9.15,KZ,overcast clouds,0,0,1/5/2020 19:59
375,Marrakesh,31.63,-7.99,53.6,71,38,4.7,MA,scattered clouds,0,0,1/5/2020 20:03
376,Berlevag,70.86,29.09,26.6,92,75,14.99,NO,broken clouds,0,0,1/5/2020 20:03
377,Aksu,52.04,76.93,17.6,92,20,6.71,KZ,few clouds,0,0,1/5/2020 20:03
378,Palmer,-34.85,139.16,60.01,58,1,6.93,AU,clear sky,0,0,1/5/2020 20:03
379,Abrau-Dyurso,44.7,37.6,44.6,93,75,6.71,RU,light intensity shower rain,0,0,1/5/2020 20:03
380,Martapura,-3.41,114.85,75.2,100,90,3.36,ID,overcast clouds,0,0,1/5/2020 20:03
381,Staryy Nadym,65.61,72.68,12.99,90,0,12.08,RU,clear sky,0,0,1/5/2020 20:03
382,Meadow Lake,54.13,-108.44,14,72,5,4.92,CA,clear sky,0,0,1/5/2020 20:02
383,Tiznit,29.7,-9.73,52.34,73,0,1.23,MA,clear sky,0,0,1/5/2020 20:03
384,Ancud,-41.87,-73.83,59,58,75,12.75,CL,broken clouds,0,0,1/5/2020 20:03
385,San Andres,13.32,122.68,73.94,89,89,12.73,PH,light rain,0.25,0,1/5/2020 20:01
386,Port Hawkesbury,45.62,-61.36,28.99,92,90,12.75,CA,snow,0,0,1/5/2020 20:00
387,Lazaro Cardenas,28.39,-105.62,69.01,28,5,6.93,MX,clear sky,0,0,1/5/2020 20:03
388,Codajas,-3.84,-62.06,92.71,52,43,2.15,BR,scattered clouds,0,0,1/5/2020 20:03
389,Umba,66.69,34.34,24.1,72,33,20.8,RU,scattered clouds,0,0,1/5/2020 20:03
390,Leningradskiy,69.38,178.42,-11,51,0,1.83,RU,clear sky,0,0,1/5/2020 20:03
391,Chiredzi,-21.05,31.67,78.26,33,0,5.53,ZW,clear sky,0,0,1/5/2020 20:03
392,Newton,42.34,-71.21,37.99,59,0,19.46,US,clear sky,0,0,1/5/2020 20:03
393,Paralimni,40.99,23.67,46,50,95,8.99,GR,overcast clouds,0,0,1/5/2020 20:03
394,Grindavik,63.84,-22.43,37.4,74,75,9.17,IS,broken clouds,0,0,1/5/2020 20:03
395,Kattivakkam,13.22,80.32,78.8,88,40,4.7,IN,mist,0,0,1/5/2020 20:03
396,Sambava,-14.27,50.17,71.55,98,100,2.93,MG,moderate rain,4.5,0,1/5/2020 20:03
397,Bull Savanna,17.89,-77.59,80.83,52,0,3.83,JM,clear sky,0,0,1/5/2020 20:03
398,Tambacounda,13.77,-13.67,82.4,11,0,6.93,SN,dust,0,0,1/5/2020 20:03
399,Conceicao Do Araguaia,-8.26,-49.26,79.75,89,100,2.84,BR,moderate rain,4.06,0,1/5/2020 20:00
400,Provideniya,64.42,-173.23,-10.43,82,100,9.08,RU,overcast clouds,0,0,1/5/2020 20:03
401,Kanniyakumari,8.08,77.57,80.71,80,64,25.21,IN,broken clouds,0,0,1/5/2020 20:03
402,Leshukonskoye,64.9,45.76,12.88,95,39,6.46,RU,scattered clouds,0,0,1/5/2020 19:59
403,Bermejo,-22.73,-64.34,100.99,38,85,1.99,AR,overcast clouds,0,0,1/5/2020 20:03
404,Hambantota,6.12,81.12,79.54,80,13,20.83,LK,few clouds,0,0,1/5/2020 20:03
405,Lasa,34.92,32.53,53.6,81,75,6.93,CY,broken clouds,0,0,1/5/2020 20:03
406,Hirara,24.8,125.28,69.44,72,17,17.43,JP,few clouds,0,0,1/5/2020 20:03
407,Shadrinsk,56.09,63.63,18.9,90,84,9.22,RU,broken clouds,0,0,1/5/2020 20:03
408,Saint Anthony,43.97,-111.68,26.6,85,90,1.72,US,light rain,0,0,1/5/2020 20:03
409,Esperance,-33.86,121.89,64.4,59,33,18.34,AU,scattered clouds,0,0,1/5/2020 20:03
410,Zyryanka,65.73,150.89,-8.52,84,0,3.11,RU,clear sky,0,0,1/5/2020 20:04
411,Tam Ky,15.57,108.48,71.6,94,75,1.12,VN,broken clouds,0,0,1/5/2020 20:04
412,Severo-Yeniseyskiy,60.37,93.04,16.18,93,69,7.47,RU,broken clouds,0,0,1/5/2020 20:04
413,Nador,35.17,-2.93,55.4,76,75,4.7,MA,broken clouds,0,0,1/5/2020 20:00
414,Corner Brook,48.95,-57.95,30.2,86,90,14.99,CA,light snow,0,0,1/5/2020 20:04
415,Bonito,-1.36,-47.3,76.57,92,100,6.85,BR,moderate rain,4.38,0,1/5/2020 20:04
416,Aracataca,10.59,-74.19,89.6,62,20,5.82,CO,few clouds,0,0,1/5/2020 20:04
417,Ensley,33.51,-86.89,59,35,1,9.17,US,clear sky,0,0,1/5/2020 20:04
418,Grand Gaube,-20.01,57.66,73.4,100,75,5.82,MU,heavy intensity rain,0,0,1/5/2020 20:04
419,Nioro,13.79,-15.05,72.45,10,0,9.04,GM,clear sky,0,0,1/5/2020 20:04
420,Rio Grande,-32.03,-52.1,87.8,45,20,14.99,BR,few clouds,0,0,1/5/2020 20:04
421,Matay,28.42,30.79,46.33,56,0,6.89,EG,clear sky,0,0,1/5/2020 20:04
422,Basco,40.33,-91.2,52,59,1,33.33,US,clear sky,0,0,1/5/2020 20:04
423,Tayoltita,24.11,-105.93,78.82,22,81,4.16,MX,broken clouds,0,0,1/5/2020 20:04
424,Coihaique,-45.58,-72.07,60.8,51,75,11.41,CL,broken clouds,0,0,1/5/2020 19:59
425,Pyapon,16.29,95.68,71.92,85,100,6.38,MM,overcast clouds,0,0,1/5/2020 20:04
426,Rabo De Peixe,37.8,-25.58,64.4,93,40,14.99,PT,scattered clouds,0,0,1/5/2020 19:59
427,Khasan,42.43,130.64,18.12,81,45,3.87,RU,scattered clouds,0,0,1/5/2020 20:04
428,Viedma,-40.81,-62.99,67.3,62,76,21.85,AR,broken clouds,0,0,1/5/2020 20:04
429,Micheweni,-4.97,39.83,83.32,75,74,16.24,TZ,broken clouds,0,0,1/5/2020 20:04
430,Portland,43.66,-70.25,34,47,40,16.11,US,scattered clouds,0,0,1/5/2020 20:01
431,Pathum Thani,14.02,100.53,80.01,83,20,1.52,TH,few clouds,0,0,1/5/2020 20:04
432,Nedjo,9.5,35.5,59.36,61,1,3.87,ET,clear sky,0,0,1/5/2020 20:04
433,Okha,53.59,142.95,24.75,89,100,15.82,RU,light snow,0,0.13,1/5/2020 20:04
434,Cayenne,4.94,-52.33,80.6,78,10,4.7,GF,clear sky,0,0,1/5/2020 19:59
435,Ambilobe,-13.19,49.05,78.42,86,100,1.59,MG,overcast clouds,0,0,1/5/2020 20:04
436,Brindisi,40.63,17.94,48.2,45,75,33.33,IT,broken clouds,0,0,1/5/2020 20:00
437,Mandera,3.94,41.86,64.99,19,23,1.52,ET,few clouds,0,0,1/5/2020 20:04
438,Kathmandu,27.71,85.32,41,93,20,2.24,NP,few clouds,0,0,1/5/2020 20:03
439,Bilma,18.69,12.92,54.57,29,93,5.93,NE,overcast clouds,0,0,1/5/2020 20:04
440,Vinh,18.67,105.69,65.53,95,39,0.98,VN,scattered clouds,0,0,1/5/2020 20:04
441,Acapulco,16.86,-99.88,86,66,5,5.82,MX,clear sky,0,0,1/5/2020 20:04
442,Ranong,9.96,98.62,77.32,82,27,6.73,TH,scattered clouds,0,0,1/5/2020 20:04
443,Diego De Almagro,-26.39,-70.05,75.24,33,0,13.24,CL,clear sky,0,0,1/5/2020 20:04
444,Fallon,46.84,-105.12,39,55,1,10.29,US,clear sky,0,0,1/5/2020 20:04
445,Fort-Shevchenko,44.51,50.26,30.38,57,100,6.53,KZ,overcast clouds,0,0,1/5/2020 19:59
446,Cardston,49.2,-113.32,39.99,47,1,16.62,CA,clear sky,0,0,1/5/2020 20:02
447,Nizhneudinsk,54.91,99.03,17.22,84,100,4.68,RU,overcast clouds,0,0,1/5/2020 20:04
448,Marsa Matruh,31.35,27.25,53.6,71,20,6.93,EG,few clouds,0,0,1/5/2020 20:03
449,Severo-Kurilsk,50.68,156.12,19.35,93,100,14.85,RU,snow,0,7.06,1/5/2020 20:04
450,Roma,41.89,12.48,50,34,0,10.29,IT,clear sky,0,0,1/5/2020 20:00
451,Ginir,7.14,40.71,60.15,72,0,2.75,ET,clear sky,0,0,1/5/2020 20:04
452,San Isidro,10.02,-84.06,84.2,41,54,23.04,CR,broken clouds,0,0,1/5/2020 20:00
453,Shenjiamen,29.96,122.3,60.03,90,33,15.99,CN,scattered clouds,0,0,1/5/2020 20:04
454,Havoysund,71,24.66,26.6,73,40,18.34,NO,scattered clouds,0,0,1/5/2020 20:04
455,Nelson Bay,-32.72,152.14,69.01,82,90,4.7,AU,overcast clouds,0,0,1/5/2020 20:04
456,Kieta,-6.22,155.63,82.26,72,5,3.89,PG,clear sky,0,0,1/5/2020 20:04
457,Robertsport,6.75,-11.37,80.67,67,15,11.52,LR,few clouds,0,0,1/5/2020 20:04
458,Seabra,-12.42,-41.77,67.73,93,99,1.36,BR,moderate rain,4.25,0,1/5/2020 20:04
459,Saryozek,44.36,77.98,17.37,60,0,3.33,KZ,clear sky,0,0,1/5/2020 20:04
460,Smolenskoye,52.31,85.08,11.97,79,10,1.79,RU,clear sky,0,0,1/5/2020 20:04
461,Birpur,26.48,86.75,53.64,73,1,8.7,IN,clear sky,0,0,1/5/2020 20:04
462,Cairns,-16.92,145.77,77,83,40,3.36,AU,scattered clouds,0,0,1/5/2020 20:00
463,Innisfail,-17.52,146.03,64.99,99,12,1.01,AU,light rain,0.25,0,1/5/2020 19:59
464,Nioaque,-21.16,-55.83,96.15,24,1,7.2,BR,clear sky,0,0,1/5/2020 20:04
465,Kajaani,64.22,27.73,17.6,85,100,11.41,FI,overcast clouds,0,0,1/5/2020 20:04
466,Sandakan,5.84,118.12,80.6,83,20,6.93,MY,few clouds,0,0,1/5/2020 20:04
467,Jumla,29.28,82.18,23.38,30,100,4.81,NP,overcast clouds,0,0,1/5/2020 20:04
468,Altamont,49.4,-98.5,30.2,50,1,21.92,CA,clear sky,0,0,1/5/2020 20:04
469,Arman,59.7,150.17,17.53,67,72,7.99,RU,broken clouds,0,0,1/5/2020 20:04
470,Forest Acres,34.02,-80.99,57.2,37,1,8.05,US,clear sky,0,0,1/5/2020 20:04
471,Acajutla,13.59,-89.83,80.6,36,0,11.41,SV,clear sky,0,0,1/5/2020 20:04
472,Liku,-0.73,119.89,68.52,94,100,2.48,ID,moderate rain,7.44,0,1/5/2020 20:04
473,Wadi Musa,30.32,35.48,40.69,56,0,2.1,JO,clear sky,0,0,1/5/2020 20:04
474,Aljezur,37.31,-8.8,57,74,34,4,PT,scattered clouds,0,0,1/5/2020 20:04
475,Bowen,-20.01,148.25,75,88,40,1.12,AU,scattered clouds,0,0,1/5/2020 20:04
476,Ahuimanu,21.44,-157.84,77,83,90,4.7,US,light intensity drizzle,0,0,1/5/2020 20:04
477,Cabedelo,-6.97,-34.84,84.2,66,40,11.41,BR,scattered clouds,0,0,1/5/2020 20:04
478,Bilibino,68.06,166.44,-10.95,65,0,2.04,RU,clear sky,0,0,1/5/2020 20:04
479,Panzhihua,26.59,101.72,43.7,95,74,1.05,CN,broken clouds,0,0,1/5/2020 20:04
480,Sarangani,5.4,125.46,81.55,72,7,19.86,PH,clear sky,0,0,1/5/2020 20:04
481,Whitianga,-36.83,175.7,64,80,2,13,NZ,clear sky,0,0,1/5/2020 20:04
482,Tazovskiy,67.47,78.7,14.52,91,17,16.73,RU,few clouds,0,0,1/5/2020 19:59
483,Ozark,37.02,-93.21,59,37,5,12.75,US,clear sky,0,0,1/5/2020 20:04
484,Paita,-5.09,-81.11,62.6,100,0,13.87,PE,clear sky,0,0,1/5/2020 20:04
485,Terme,41.21,36.97,39.2,69,40,6.93,TR,scattered clouds,0,0,1/5/2020 20:04
486,Wladyslawowo,54.79,18.4,35.01,84,90,9.17,PL,overcast clouds,0,0,1/5/2020 20:04
487,Darhan,49.49,105.92,0.79,94,63,5.21,MN,broken clouds,0,0,1/5/2020 20:04
488,Macklin,52.34,-109.94,21.88,80,8,8.59,CA,clear sky,0,0,1/5/2020 20:04
489,Lipari,38.47,14.95,53.6,22,40,16.11,IT,scattered clouds,0,0,1/5/2020 20:04
490,Yulara,-25.24,130.99,64.4,88,90,9.17,AU,overcast clouds,0,0,1/5/2020 20:04
491,Banposh,22.25,84.8,53.89,67,0,3.18,IN,clear sky,0,0,1/5/2020 20:04
492,Zhangjiakou,40.77,114.88,19.08,96,100,1.34,CN,light snow,0,0.25,1/5/2020 20:04
493,Dawlatabad,36.41,64.91,41.32,77,81,1.99,AF,broken clouds,0,0,1/5/2020 20:04
494,Borogontsy,62.67,131.17,-5.8,98,100,4.56,RU,light snow,0,0.25,1/5/2020 20:04
495,Makungu,-8.74,35.29,59.09,91,100,1.01,TZ,overcast clouds,0,0,1/5/2020 20:04
496,Hinton,53.4,-117.57,27.43,66,100,15.14,CA,overcast clouds,0,0,1/5/2020 20:04
497,Sabang,13.8,121.11,79,71,8,8.01,PH,clear sky,0,0,1/5/2020 20:04
498,Phonhong,18.5,102.42,67.17,84,0,0.85,LA,clear sky,0,0,1/5/2020 20:04
499,Dauphin,51.15,-100.04,24.8,68,1,25.28,CA,clear sky,0,0,1/5/2020 20:04
500,Murmashi,68.82,32.82,15.8,78,61,8.95,RU,broken clouds,0,0,1/5/2020 20:04
501,Peleduy,59.63,112.75,13.48,93,100,13.38,RU,light snow,0,0.81,1/5/2020 20:04
502,Tiarei,-17.53,-149.33,84.2,74,20,3.36,PF,few clouds,0,0,1/5/2020 20:04
503,Imbituba,-28.24,-48.67,80.6,78,20,13.87,BR,few clouds,0,0,1/5/2020 20:02
504,Kuruman,-27.46,23.43,78.01,30,15,15.52,ZA,few clouds,0,0,1/5/2020 20:04
505,Horsham,-36.71,142.2,55.49,65,69,9.48,AU,broken clouds,0,0,1/5/2020 20:04
506,Akureyri,65.68,-18.09,37.4,64,20,19.46,IS,few clouds,0,0,1/5/2020 20:04
507,Karratha,-20.74,116.85,84.25,69,100,10.11,AU,moderate rain,3.25,0,1/5/2020 20:04
508,Klaksvik,62.23,-6.59,44.6,93,100,16.11,FO,overcast clouds,0,0,1/5/2020 20:04
509,Nemuro,43.32,145.57,26.94,66,49,25.9,JP,scattered clouds,0,0,1/5/2020 20:04
510,Broome,52.47,1.45,46.4,87,75,10.29,GB,broken clouds,0,0,1/5/2020 20:04
511,Pulandian,39.4,121.96,39.2,80,100,6.71,CN,overcast clouds,0,0,1/5/2020 20:04
512,Kununurra,-15.77,128.74,78.8,94,40,5.82,AU,scattered clouds,0,0,1/5/2020 19:59
513,Amahai,-3.31,129,84,85,100,15.12,ID,overcast clouds,0,0,1/5/2020 20:04
514,Benton,38,-88.92,54,40,1,13.87,US,clear sky,0,0,1/5/2020 20:04
